[
  {
    "id": 361404936,
    "import_id": null,
    "started_at": 1769733741,
    "ended_at": 1769734553,
    "created_at": 1769734598,
    "updated_at": null,
    "starting_location": "2630 Grand Vista Circle, Colorado Springs, Colorado 80904, United States",
    "starting_saved_location": "2610 Grand Vita Cir",
    "starting_latitude": 38.87467,
    "starting_longitude": -104.85162,
    "starting_odometer": 112816.84,
    "ending_location": "1194 Magnolia Street, Colorado Springs, Colorado 80907, United States",
    "ending_saved_location": "Home",
    "ending_latitude": 38.886703,
    "ending_longitude": -104.80408,
    "ending_odometer": 112821.03,
    "starting_battery": 42,
    "ending_battery": 40,
    "average_inside_temperature": 23.5,
    "average_outside_temperature": 3.94,
    "average_speed": 24,
    "max_speed": 43,
    "rated_range_used": 3.5,
    "ideal_range_used": 0,
    "odometer_distance": 4.19,
    "autopilot_distance": 4.19,
    "energy_used": 0.84,
    "tag": null
  },
  {
    "id": 361402169,
    "import_id": null,
    "started_at": 1769732119,
    "ended_at": 1769733741,
    "created_at": 1769733800,
    "updated_at": 1769745288,
    "starting_location": "6161 Timber Rail Point, Colorado Springs, Colorado 80817, United States",
    "starting_latitude": 38.72073,
    "starting_longitude": -104.71356,
    "starting_odometer": 112801.54,
    "ending_location": "2630 Grand Vista Circle, Colorado Springs, Colorado 80904, United States",
    "ending_saved_location": "2610 Grand Vita Cir",
    "ending_latitude": 38.87467,
    "ending_longitude": -104.85162,
    "ending_odometer": 112816.84,
    "starting_battery": 51,
    "ending_battery": 42,
    "average_inside_temperature": 23.5,
    "average_outside_temperature": 5.81,
    "average_speed": 38,
    "max_speed": 78,
    "rated_range_used": 22.52,
    "ideal_range_used": 0,
    "odometer_distance": 15.3,
    "autopilot_distance": 15.23,
    "energy_used": 5.1,
    "tag": "PT 5 Complete"
  },
  {
    "id": 361389077,
    "import_id": null,
    "started_at": 1769728875,
    "ended_at": 1769730192,
    "created_at": 1769730266,
    "updated_at": 1769745271,
    "starting_location": "2630 Grand Vista Circle, Colorado Springs, Colorado 80904, United States",
    "starting_saved_location": "2610 Grand Vita Cir",
    "starting_latitude": 38.874664,
    "starting_longitude": -104.851585,
    "starting_odometer": 112785.91,
    "ending_location": "6161 Timber Rail Point, Colorado Springs, Colorado 80817, United States",
    "ending_latitude": 38.72073,
    "ending_longitude": -104.71356,
    "ending_odometer": 112801.54,
    "starting_battery": 55,
    "ending_battery": 51,
    "average_inside_temperature": 19.84,
    "average_outside_temperature": 7.48,
    "average_speed": 45,
    "max_speed": 79,
    "rated_range_used": 8.83,
    "ideal_range_used": 0,
    "odometer_distance": 15.63,
    "autopilot_distance": 15.58,
    "energy_used": 2.14,
    "tag": "PT 5 Pickup"
  },
  {
    "id": 361383807,
    "import_id": null,
    "started_at": 1769727374,
    "ended_at": 1769728868,
    "created_at": 1769728914,
    "updated_at": 1769745237,
    "starting_location": "3605 North Carefree Circle, Colorado Springs, Colorado 80917, United States",
    "starting_latitude": 38.88205,
    "starting_longitude": -104.75145,
    "starting_odometer": 112777.78,
    "ending_location": "2630 Grand Vista Circle, Colorado Springs, Colorado 80904, United States",
    "ending_saved_location": "2610 Grand Vita Cir",
    "ending_latitude": 38.874664,
    "ending_longitude": -104.851585,
    "ending_odometer": 112785.91,
    "starting_battery": 58,
    "ending_battery": 55,
    "average_inside_temperature": 23.45,
    "average_outside_temperature": 7.15,
    "average_speed": 27,
    "max_speed": 47,
    "rated_range_used": 8.52,
    "ideal_range_used": 0,
    "odometer_distance": 8.06,
    "autopilot_distance": 7.94,
    "energy_used": 1.92,
    "tag": "PT 4 Complete"
  },
  {
    "id": 361365202,
    "import_id": null,
    "started_at": 1769723512,
    "ended_at": 1769724340,
    "created_at": 1769724399,
    "updated_at": 1769745207,
    "starting_location": "1770 Dublin Boulevard, Colorado Springs, Colorado 80918, United States",
    "starting_latitude": 38.92596,
    "starting_longitude": -104.79462,
    "starting_odometer": 112773.09,
    "ending_location": "3605 North Carefree Circle, Colorado Springs, Colorado 80917, United States",
    "ending_latitude": 38.88205,
    "ending_longitude": -104.75145,
    "ending_odometer": 112777.78,
    "starting_battery": 61,
    "ending_battery": 59,
    "average_inside_temperature": 20.99,
    "average_outside_temperature": 8.23,
    "average_speed": 34,
    "max_speed": 49,
    "rated_range_used": 4.38,
    "ideal_range_used": 0,
    "odometer_distance": 4.69,
    "autopilot_distance": 4.69,
    "energy_used": 0.98,
    "tag": "PT 4 Pickup"
  },
  {
    "id": 361361979,
    "import_id": null,
    "started_at": 1769723292,
    "ended_at": 1769723512,
    "created_at": 1769723586,
    "updated_at": null,
    "starting_location": "1770 Dublin Boulevard, Colorado Springs, Colorado 80918, United States",
    "starting_latitude": 38.926224,
    "starting_longitude": -104.79451,
    "starting_odometer": 112773.05,
    "ending_location": "1770 Dublin Boulevard, Colorado Springs, Colorado 80918, United States",
    "ending_latitude": 38.92596,
    "ending_longitude": -104.79462,
    "ending_odometer": 112773.09,
    "starting_battery": 61,
    "ending_battery": 61,
    "average_inside_temperature": 20.05,
    "average_outside_temperature": 9.18,
    "average_speed": 3,
    "max_speed": 3,
    "rated_range_used": 0.32,
    "ideal_range_used": 0,
    "odometer_distance": 0.04,
    "autopilot_distance": 0,
    "energy_used": 0.04,
    "tag": null
  },
  {
    "id": 361361036,
    "import_id": null,
    "started_at": 1769723239,
    "ended_at": 1769723286,
    "created_at": 1769723331,
    "updated_at": null,
    "starting_location": "1770 Dublin Boulevard, Colorado Springs, Colorado 80918, United States",
    "starting_latitude": 38.926167,
    "starting_longitude": -104.7944,
    "starting_odometer": 112773.04,
    "ending_location": "1770 Dublin Boulevard, Colorado Springs, Colorado 80918, United States",
    "ending_latitude": 38.926224,
    "ending_longitude": -104.79451,
    "ending_odometer": 112773.05,
    "starting_battery": 61,
    "ending_battery": 61,
    "average_inside_temperature": 19,
    "average_outside_temperature": 10,
    "average_speed": 2,
    "max_speed": 2,
    "rated_range_used": 0.16,
    "ideal_range_used": 0,
    "odometer_distance": 0.01,
    "autopilot_distance": 0,
    "energy_used": 0.04,
    "tag": null
  },
  {
    "id": 361348754,
    "import_id": null,
    "started_at": 1769718035,
    "ended_at": 1769720107,
    "created_at": 1769720165,
    "updated_at": null,
    "starting_location": "770 Abbott Lane, Colorado Springs, Colorado 80905, United States",
    "starting_latitude": 38.82533,
    "starting_longitude": -104.83896,
    "starting_odometer": 112760.72,
    "ending_location": "1770 Dublin Boulevard, Colorado Springs, Colorado 80918, United States",
    "ending_latitude": 38.926163,
    "ending_longitude": -104.7946,
    "ending_odometer": 112773.03,
    "starting_battery": 68,
    "ending_battery": 62,
    "average_inside_temperature": 21.3,
    "average_outside_temperature": 8.35,
    "average_speed": 34,
    "max_speed": 71,
    "rated_range_used": 16.39,
    "ideal_range_used": 0,
    "odometer_distance": 12.31,
    "autopilot_distance": 10.74,
    "energy_used": 3.8,
    "tag": null
  },
  {
    "id": 361338985,
    "import_id": null,
    "started_at": 1769716802,
    "ended_at": 1769717544,
    "created_at": 1769717591,
    "updated_at": null,
    "starting_location": "405 East Platte Avenue, Colorado Springs, Colorado 80903, United States",
    "starting_latitude": 38.837536,
    "starting_longitude": -104.817345,
    "starting_odometer": 112758.4,
    "ending_location": "770 Abbott Lane, Colorado Springs, Colorado 80905, United States",
    "ending_latitude": 38.82533,
    "ending_longitude": -104.83896,
    "ending_odometer": 112760.72,
    "starting_battery": 70,
    "ending_battery": 69,
    "average_inside_temperature": 21.3,
    "average_outside_temperature": 8,
    "average_speed": 21,
    "max_speed": 51,
    "rated_range_used": 2.79,
    "ideal_range_used": 0,
    "odometer_distance": 2.32,
    "autopilot_distance": 2.3,
    "energy_used": 0.58,
    "tag": null
  },
  {
    "id": 361329712,
    "import_id": null,
    "started_at": 1769714648,
    "ended_at": 1769715135,
    "created_at": 1769715214,
    "updated_at": null,
    "starting_location": "2509 East Pikes Peak Avenue, Colorado Springs, Colorado 80909, United States",
    "starting_latitude": 38.832367,
    "starting_longitude": -104.7813,
    "starting_odometer": 112755.45,
    "ending_location": "405 East Platte Avenue, Colorado Springs, Colorado 80903, United States",
    "ending_latitude": 38.837536,
    "ending_longitude": -104.817345,
    "ending_odometer": 112758.38,
    "starting_battery": 71,
    "ending_battery": 70,
    "average_inside_temperature": 21,
    "average_outside_temperature": 8,
    "average_speed": 20,
    "max_speed": 38,
    "rated_range_used": 1.91,
    "ideal_range_used": 0,
    "odometer_distance": 2.93,
    "autopilot_distance": 0,
    "energy_used": 0.42,
    "tag": null
  },
  {
    "id": 361327691,
    "import_id": null,
    "started_at": 1769713270,
    "ended_at": 1769714648,
    "created_at": 1769714709,
    "updated_at": 1769744394,
    "starting_location": "3659 Star Ranch Road, Colorado Springs, Colorado 80906, United States",
    "starting_latitude": 38.775177,
    "starting_longitude": -104.81613,
    "starting_odometer": 112747.8,
    "ending_location": "2509 East Pikes Peak Avenue, Colorado Springs, Colorado 80909, United States",
    "ending_latitude": 38.832367,
    "ending_longitude": -104.7813,
    "ending_odometer": 112755.45,
    "starting_battery": 74,
    "ending_battery": 71,
    "average_inside_temperature": 19.9,
    "average_outside_temperature": 7.12,
    "average_speed": 28,
    "max_speed": 49,
    "rated_range_used": 8.83,
    "ideal_range_used": 0,
    "odometer_distance": 7.65,
    "autopilot_distance": 6.07,
    "energy_used": 2.02,
    "tag": "PT 3 Complete"
  },
  {
    "id": 361321960,
    "import_id": null,
    "started_at": 1769713232,
    "ended_at": 1769713269,
    "created_at": 1769713314,
    "updated_at": null,
    "starting_location": "3645 Star Ranch Road, Colorado Springs, Colorado 80906, United States",
    "starting_latitude": 38.775272,
    "starting_longitude": -104.816185,
    "starting_odometer": 112747.79,
    "ending_location": "3659 Star Ranch Road, Colorado Springs, Colorado 80906, United States",
    "ending_latitude": 38.775177,
    "ending_longitude": -104.81613,
    "ending_odometer": 112747.8,
    "starting_battery": 74,
    "ending_battery": 74,
    "average_inside_temperature": 21.25,
    "average_outside_temperature": 7,
    "average_speed": 0,
    "max_speed": 1,
    "rated_range_used": 0,
    "ideal_range_used": 0,
    "odometer_distance": 0.01,
    "autopilot_distance": 0,
    "energy_used": 0.02,
    "tag": null
  },
  {
    "id": 361318186,
    "import_id": null,
    "started_at": 1769711151,
    "ended_at": 1769712366,
    "created_at": 1769712430,
    "updated_at": 1769744349,
    "starting_location": "305 North Chelton Road, Colorado Springs, Colorado 80909, United States",
    "starting_latitude": 38.83748,
    "starting_longitude": -104.7665,
    "starting_odometer": 112739.35,
    "ending_location": "3645 Star Ranch Road, Colorado Springs, Colorado 80906, United States",
    "ending_latitude": 38.775272,
    "ending_longitude": -104.816185,
    "ending_odometer": 112747.77,
    "starting_battery": 77,
    "ending_battery": 74,
    "average_inside_temperature": 21.44,
    "average_outside_temperature": 7.22,
    "average_speed": 36,
    "max_speed": 61,
    "rated_range_used": 7.24,
    "ideal_range_used": 0,
    "odometer_distance": 8.42,
    "autopilot_distance": 7.04,
    "energy_used": 1.66,
    "tag": "PT 3 Pickup"
  },
  {
    "id": 361312796,
    "import_id": null,
    "started_at": 1769711128,
    "ended_at": 1769711151,
    "created_at": 1769711174,
    "updated_at": null,
    "starting_location": "275 North Chelton Road, Colorado Springs, Colorado 80909, United States",
    "starting_latitude": 38.837116,
    "starting_longitude": -104.76659,
    "starting_odometer": 112739.32,
    "ending_location": "305 North Chelton Road, Colorado Springs, Colorado 80909, United States",
    "ending_latitude": 38.83748,
    "ending_longitude": -104.7665,
    "ending_odometer": 112739.35,
    "starting_battery": 77,
    "ending_battery": 77,
    "average_inside_temperature": 19.4,
    "average_outside_temperature": 8,
    "average_speed": 9,
    "max_speed": 9,
    "rated_range_used": 0.24,
    "ideal_range_used": 0,
    "odometer_distance": 0.03,
    "autopilot_distance": 0,
    "energy_used": 0,
    "tag": null
  },
  {
    "id": 361312791,
    "import_id": null,
    "started_at": 1769710252,
    "ended_at": 1769711128,
    "created_at": 1769711173,
    "updated_at": null,
    "starting_location": "1332 Motor City Drive, Colorado Springs, Colorado 80905, United States",
    "starting_latitude": 38.81454,
    "starting_longitude": -104.83123,
    "starting_odometer": 112733.61,
    "ending_location": "305 North Chelton Road, Colorado Springs, Colorado 80909, United States",
    "ending_latitude": 38.83748,
    "ending_longitude": -104.7665,
    "ending_odometer": 112739.35,
    "starting_battery": 80,
    "ending_battery": 77,
    "average_inside_temperature": 19.29,
    "average_outside_temperature": 8,
    "average_speed": 32,
    "max_speed": 70,
    "rated_range_used": 6.84,
    "ideal_range_used": 0,
    "odometer_distance": 5.71,
    "autopilot_distance": 5.71,
    "energy_used": 1.66,
    "tag": null
  },
  {
    "id": 361308805,
    "import_id": null,
    "started_at": 1769709598,
    "ended_at": 1769710252,
    "created_at": 1769710315,
    "updated_at": null,
    "starting_location": "3659 Star Ranch Road, Colorado Springs, Colorado 80906, United States",
    "starting_latitude": 38.775166,
    "starting_longitude": -104.816185,
    "starting_odometer": 112730.14,
    "ending_location": "1332 Motor City Drive, Colorado Springs, Colorado 80905, United States",
    "ending_latitude": 38.81454,
    "ending_longitude": -104.83123,
    "ending_odometer": 112733.61,
    "starting_battery": 81,
    "ending_battery": 80,
    "average_inside_temperature": 19.4,
    "average_outside_temperature": 7.52,
    "average_speed": 26,
    "max_speed": 56,
    "rated_range_used": 3.66,
    "ideal_range_used": 0,
    "odometer_distance": 3.47,
    "autopilot_distance": 2.2,
    "energy_used": 0.86,
    "tag": null
  },
  {
    "id": 361305812,
    "import_id": null,
    "started_at": 1769708689,
    "ended_at": 1769709594,
    "created_at": 1769709686,
    "updated_at": 1769744316,
    "starting_location": "2509 East Pikes Peak Avenue, Colorado Springs, Colorado 80909, United States",
    "starting_latitude": 38.83235,
    "starting_longitude": -104.78129,
    "starting_odometer": 112723.38,
    "ending_location": "3659 Star Ranch Road, Colorado Springs, Colorado 80906, United States",
    "ending_latitude": 38.775166,
    "ending_longitude": -104.816185,
    "ending_odometer": 112730.14,
    "starting_battery": 83,
    "ending_battery": 81,
    "average_inside_temperature": 19.37,
    "average_outside_temperature": 7.29,
    "average_speed": 32,
    "max_speed": 53,
    "rated_range_used": 4.78,
    "ideal_range_used": 0,
    "odometer_distance": 6.76,
    "autopilot_distance": 6.76,
    "energy_used": 1.14,
    "tag": "PT 3 Pickup"
  },
  {
    "id": 361301181,
    "import_id": null,
    "started_at": 1769707903,
    "ended_at": 1769708675,
    "created_at": 1769708736,
    "updated_at": null,
    "starting_location": "1534 North Academy Boulevard, Colorado Springs, Colorado 80909, United States",
    "starting_latitude": 38.856194,
    "starting_longitude": -104.756996,
    "starting_odometer": 112718.62,
    "ending_location": "2509 East Pikes Peak Avenue, Colorado Springs, Colorado 80909, United States",
    "ending_latitude": 38.83235,
    "ending_longitude": -104.78129,
    "ending_odometer": 112723.38,
    "starting_battery": 85,
    "ending_battery": 83,
    "average_inside_temperature": 19.4,
    "average_outside_temperature": 8,
    "average_speed": 25,
    "max_speed": 40,
    "rated_range_used": 3.74,
    "ideal_range_used": 0,
    "odometer_distance": 4.74,
    "autopilot_distance": 4.36,
    "energy_used": 0.76,
    "tag": null
  },
  {
    "id": 361293672,
    "import_id": null,
    "started_at": 1769706861,
    "ended_at": 1769707180,
    "created_at": 1769707271,
    "updated_at": null,
    "starting_location": "3924 North Academy Boulevard, Colorado Springs, Colorado 80917, United States",
    "starting_latitude": 38.888256,
    "starting_longitude": -104.757256,
    "starting_odometer": 112716.35,
    "ending_location": "1534 North Academy Boulevard, Colorado Springs, Colorado 80909, United States",
    "ending_latitude": 38.856194,
    "ending_longitude": -104.756996,
    "ending_odometer": 112718.62,
    "starting_battery": 85,
    "ending_battery": 85,
    "average_inside_temperature": 19.09,
    "average_outside_temperature": 7,
    "average_speed": 31,
    "max_speed": 49,
    "rated_range_used": 1.51,
    "ideal_range_used": 0,
    "odometer_distance": 2.27,
    "autopilot_distance": 2.24,
    "energy_used": 0.26,
    "tag": null
  },
  {
    "id": 361287437,
    "import_id": null,
    "started_at": 1769705291,
    "ended_at": 1769705981,
    "created_at": 1769706053,
    "updated_at": null,
    "starting_location": "1714 Dublin Boulevard, Colorado Springs, Colorado 80918, United States",
    "starting_latitude": 38.92595,
    "starting_longitude": -104.79573,
    "starting_odometer": 112712.45,
    "ending_location": "3924 North Academy Boulevard, Colorado Springs, Colorado 80917, United States",
    "ending_latitude": 38.888256,
    "ending_longitude": -104.757256,
    "ending_odometer": 112716.35,
    "starting_battery": 87,
    "ending_battery": 86,
    "average_inside_temperature": 19.3,
    "average_outside_temperature": 5.7,
    "average_speed": 25,
    "max_speed": 57,
    "rated_range_used": 4.14,
    "ideal_range_used": 0,
    "odometer_distance": 3.9,
    "autopilot_distance": 0,
    "energy_used": 0.9,
    "tag": null
  },
  {
    "id": 361283607,
    "import_id": null,
    "started_at": 1769705226,
    "ended_at": 1769705290,
    "created_at": 1769705338,
    "updated_at": null,
    "starting_location": "1770 Dublin Boulevard, Colorado Springs, Colorado 80918, United States",
    "starting_latitude": 38.925964,
    "starting_longitude": -104.79459,
    "starting_odometer": 112712.38,
    "ending_location": "1714 Dublin Boulevard, Colorado Springs, Colorado 80918, United States",
    "ending_latitude": 38.92595,
    "ending_longitude": -104.79573,
    "ending_odometer": 112712.45,
    "starting_battery": 87,
    "ending_battery": 87,
    "average_inside_temperature": 18.9,
    "average_outside_temperature": 6,
    "average_speed": 8,
    "max_speed": 8,
    "rated_range_used": 0,
    "ideal_range_used": 0,
    "odometer_distance": 0.07,
    "autopilot_distance": 0,
    "energy_used": 0.04,
    "tag": null
  },
  {
    "id": 361282117,
    "import_id": null,
    "started_at": 1769704285,
    "ended_at": 1769704994,
    "created_at": 1769705057,
    "updated_at": null,
    "starting_location": "23 East Tyler Street, Colorado Springs, Colorado 80907, United States",
    "starting_saved_location": "E Tyler St",
    "starting_latitude": 38.871002,
    "starting_longitude": -104.822365,
    "starting_odometer": 112707.27,
    "ending_location": "1770 Dublin Boulevard, Colorado Springs, Colorado 80918, United States",
    "ending_latitude": 38.925964,
    "ending_longitude": -104.79459,
    "ending_odometer": 112712.38,
    "starting_battery": 90,
    "ending_battery": 87,
    "average_inside_temperature": 19.36,
    "average_outside_temperature": 4,
    "average_speed": 31,
    "max_speed": 50,
    "rated_range_used": 6.92,
    "ideal_range_used": 0,
    "odometer_distance": 5.11,
    "autopilot_distance": 5.11,
    "energy_used": 1.64,
    "tag": null
  },
  {
    "id": 361263293,
    "import_id": null,
    "started_at": 1769700190,
    "ended_at": 1769701394,
    "created_at": 1769701475,
    "updated_at": null,
    "starting_location": "3605 North Carefree Circle, Colorado Springs, Colorado 80917, United States",
    "starting_latitude": 38.881992,
    "starting_longitude": -104.751816,
    "starting_odometer": 112700.98,
    "ending_location": "23 East Tyler Street, Colorado Springs, Colorado 80907, United States",
    "ending_saved_location": "E Tyler St",
    "ending_latitude": 38.871002,
    "ending_longitude": -104.822365,
    "ending_odometer": 112707.26,
    "starting_battery": 15,
    "ending_battery": 12,
    "average_inside_temperature": 23.9,
    "average_outside_temperature": 1.48,
    "average_speed": 22,
    "max_speed": 55,
    "rated_range_used": 6.84,
    "ideal_range_used": 0,
    "odometer_distance": 6.28,
    "autopilot_distance": 4.79,
    "energy_used": 1.58,
    "tag": null
  },
  {
    "id": 361256996,
    "import_id": null,
    "started_at": 1769698524,
    "ended_at": 1769700190,
    "created_at": 1769700237,
    "updated_at": 1769744119,
    "starting_location": "6161 Timber Rail Point, Colorado Springs, Colorado 80817, United States",
    "starting_latitude": 38.72072,
    "starting_longitude": -104.71353,
    "starting_odometer": 112687.84,
    "ending_location": "3605 North Carefree Circle, Colorado Springs, Colorado 80917, United States",
    "ending_latitude": 38.881992,
    "ending_longitude": -104.751816,
    "ending_odometer": 112700.98,
    "starting_battery": 27,
    "ending_battery": 15,
    "average_inside_temperature": 23.9,
    "average_outside_temperature": 0.58,
    "average_speed": 35,
    "max_speed": 61,
    "rated_range_used": 29.45,
    "ideal_range_used": 0,
    "odometer_distance": 13.15,
    "autopilot_distance": 12.47,
    "energy_used": 6.92,
    "tag": "PT2 Complete"
  },
  {
    "id": 361248836,
    "import_id": null,
    "started_at": 1769697309,
    "ended_at": 1769698524,
    "created_at": 1769698571,
    "updated_at": 1769743960,
    "starting_location": "2630 Grand Vista Circle, Colorado Springs, Colorado 80904, United States",
    "starting_saved_location": "2610 Grand Vita Cir",
    "starting_latitude": 38.87473,
    "starting_longitude": -104.85159,
    "starting_odometer": 112672.27,
    "ending_location": "6161 Timber Rail Point, Colorado Springs, Colorado 80817, United States",
    "ending_latitude": 38.72072,
    "ending_longitude": -104.71353,
    "ending_odometer": 112687.84,
    "starting_battery": 31,
    "ending_battery": 27,
    "average_inside_temperature": 23.9,
    "average_outside_temperature": -0.05,
    "average_speed": 52,
    "max_speed": 84,
    "rated_range_used": 11.38,
    "ideal_range_used": 0,
    "odometer_distance": 15.57,
    "autopilot_distance": 15.57,
    "energy_used": 2.5,
    "tag": "PT 2 Pickup"
  },
  {
    "id": 361243054,
    "import_id": null,
    "started_at": 1769697200,
    "ended_at": 1769697288,
    "created_at": 1769697346,
    "updated_at": null,
    "starting_location": "2630 Grand Vista Circle, Colorado Springs, Colorado 80904, United States",
    "starting_saved_location": "2610 Grand Vita Cir",
    "starting_latitude": 38.874664,
    "starting_longitude": -104.851585,
    "starting_odometer": 112672.27,
    "ending_location": "2630 Grand Vista Circle, Colorado Springs, Colorado 80904, United States",
    "ending_saved_location": "2610 Grand Vita Cir",
    "ending_latitude": 38.87473,
    "ending_longitude": -104.85159,
    "ending_odometer": 112672.27,
    "starting_battery": 31,
    "ending_battery": 31,
    "average_inside_temperature": 23.9,
    "average_outside_temperature": -1,
    "average_speed": 0,
    "max_speed": 1,
    "rated_range_used": 0.16,
    "ideal_range_used": 0,
    "odometer_distance": 0,
    "autopilot_distance": 0,
    "energy_used": 0.04,
    "tag": null
  },
  {
    "id": 361242636,
    "import_id": null,
    "started_at": 1769696421,
    "ended_at": 1769697200,
    "created_at": 1769697259,
    "updated_at": null,
    "starting_location": "23 East Tyler Street, Colorado Springs, Colorado 80907, United States",
    "starting_saved_location": "E Tyler St",
    "starting_latitude": 38.87112,
    "starting_longitude": -104.82248,
    "starting_odometer": 112670.08,
    "ending_location": "2630 Grand Vista Circle, Colorado Springs, Colorado 80904, United States",
    "ending_saved_location": "2610 Grand Vita Cir",
    "ending_latitude": 38.874664,
    "ending_longitude": -104.851585,
    "ending_odometer": 112672.27,
    "starting_battery": 33,
    "ending_battery": 31,
    "average_inside_temperature": 23.9,
    "average_outside_temperature": -1,
    "average_speed": 21,
    "max_speed": 43,
    "rated_range_used": 4.54,
    "ideal_range_used": 0,
    "odometer_distance": 2.19,
    "autopilot_distance": 2.16,
    "energy_used": 0.86,
    "tag": null
  },
  {
    "id": 361238222,
    "import_id": null,
    "started_at": 1769695653,
    "ended_at": 1769696207,
    "created_at": 1769696285,
    "updated_at": null,
    "starting_location": "4863 North Nevada Avenue, Colorado Springs, Colorado 80918, United States",
    "starting_latitude": 38.90155,
    "starting_longitude": -104.81684,
    "starting_odometer": 112667.62,
    "ending_location": "23 East Tyler Street, Colorado Springs, Colorado 80907, United States",
    "ending_saved_location": "E Tyler St",
    "ending_latitude": 38.87112,
    "ending_longitude": -104.82248,
    "ending_odometer": 112670.08,
    "starting_battery": 31,
    "ending_battery": 29,
    "average_inside_temperature": 23.9,
    "average_outside_temperature": -1.35,
    "average_speed": 33,
    "max_speed": 55,
    "rated_range_used": 6.13,
    "ideal_range_used": 0,
    "odometer_distance": 2.46,
    "autopilot_distance": 0,
    "energy_used": 1.82,
    "tag": null
  },
  {
    "id": 361235626,
    "import_id": null,
    "started_at": 1769694515,
    "ended_at": 1769695629,
    "created_at": 1769695692,
    "updated_at": 1769743895,
    "starting_location": "7718 East Woodmen Road, Colorado Springs, Colorado 80908, United States",
    "starting_latitude": 38.941574,
    "starting_longitude": -104.6811,
    "starting_odometer": 112658,
    "ending_location": "4863 North Nevada Avenue, Colorado Springs, Colorado 80918, United States",
    "ending_latitude": 38.90155,
    "ending_longitude": -104.81684,
    "ending_odometer": 112667.62,
    "starting_battery": 33,
    "ending_battery": 31,
    "average_inside_temperature": 23.9,
    "average_outside_temperature": -2.76,
    "average_speed": 37,
    "max_speed": 63,
    "rated_range_used": 5.17,
    "ideal_range_used": 0,
    "odometer_distance": 9.63,
    "autopilot_distance": 8.11,
    "energy_used": 1.12,
    "tag": "PT1 Complete"
  },
  {
    "id": 361229766,
    "import_id": null,
    "started_at": 1769693548,
    "ended_at": 1769694337,
    "created_at": 1769694432,
    "updated_at": 1769743876,
    "starting_location": "12749 Mount Harvard Drive, Peyton, Colorado 80831, United States",
    "starting_latitude": 38.983776,
    "starting_longitude": -104.59017,
    "starting_odometer": 112649.86,
    "ending_location": "7718 East Woodmen Road, Colorado Springs, Colorado 80908, United States",
    "ending_latitude": 38.941574,
    "ending_longitude": -104.6811,
    "ending_odometer": 112657.93,
    "starting_battery": 36,
    "ending_battery": 33,
    "average_inside_temperature": 25.62,
    "average_outside_temperature": -4.45,
    "average_speed": 41,
    "max_speed": 62,
    "rated_range_used": 8.04,
    "ideal_range_used": 0,
    "odometer_distance": 8.07,
    "autopilot_distance": 7.24,
    "energy_used": 1.78,
    "tag": "PT 1 Stop 1"
  },
  {
    "id": 361224207,
    "import_id": null,
    "started_at": 1769691013,
    "ended_at": 1769693095,
    "created_at": 1769693140,
    "updated_at": 1769743823,
    "starting_location": "3030 Wood Avenue, Colorado Springs, Colorado 80907, United States",
    "starting_latitude": 38.87504,
    "starting_longitude": -104.8258,
    "starting_odometer": 112627.76,
    "ending_location": "12749 Mount Harvard Drive, Peyton, Colorado 80831, United States",
    "ending_latitude": 38.983776,
    "ending_longitude": -104.59017,
    "ending_odometer": 112649.84,
    "starting_battery": 51,
    "ending_battery": 37,
    "average_inside_temperature": 24.61,
    "average_outside_temperature": -2.13,
    "average_speed": 40,
    "max_speed": 72,
    "rated_range_used": 35.34,
    "ideal_range_used": 0,
    "odometer_distance": 22.08,
    "autopilot_distance": 21.93,
    "energy_used": 8.48,
    "tag": "PT 1 Pickup"
  },
  {
    "id": 361212529,
    "import_id": null,
    "started_at": 1769689521,
    "ended_at": 1769690063,
    "created_at": 1769690154,
    "updated_at": null,
    "starting_location": "1194 Magnolia Street, Colorado Springs, Colorado 80907, United States",
    "starting_saved_location": "Home",
    "starting_latitude": 38.886726,
    "starting_longitude": -104.80408,
    "starting_odometer": 112625.19,
    "ending_location": "3030 Wood Avenue, Colorado Springs, Colorado 80907, United States",
    "ending_latitude": 38.87504,
    "ending_longitude": -104.8258,
    "ending_odometer": 112627.73,
    "starting_battery": 52,
    "ending_battery": 51,
    "average_inside_temperature": 25.38,
    "average_outside_temperature": 0,
    "average_speed": 21,
    "max_speed": 45,
    "rated_range_used": 1.91,
    "ideal_range_used": 0,
    "odometer_distance": 2.54,
    "autopilot_distance": 2.54,
    "energy_used": 0.46,
    "tag": null
  }
]
